[
  {"name":"Vanløse Station - P","address":"Vanløse Station, 2720 Vanløse","lat":55.6970,"lng":12.4890,"note":"Stationsparkering; tjek skilte."},
  {"name":"Hellerup Stationsplads","address":"Hellerup St., 2900 Hellerup","lat":55.7387,"lng":12.5785,"note":"Stationsparkering; ofte tidsbegrænset."},
  {"name":"Valby Syd P","address":"Valbyparken, 2500 Valby","lat":55.6560,"lng":12.4995,"note":"Større p-plads ved Valby."},
  {"name":"Amager Strand P","address":"Strandvejen, 2300 København S","lat":55.6469,"lng":12.5950,"note":"P-pladser ved stranden; tjek skilte."},
  {"name":"Tangkrogen P","address":"Marselisborg Havnevej 4, 8000 Aarhus","lat":56.1520,"lng":10.2030,"note":"Stor p-plads ved kysten."},
  {"name":"Ceres Park","address":"Stadion Allé 70, 8000 Aarhus","lat":56.1515,"lng":10.2050,"note":"Gratis i weekender. Tæt på stadion."},
  {"name":"Donbækhaven","address":"Oddervej 6, 8000 Aarhus","lat":56.1440,"lng":10.2100,"note":"Gadeparkering, tjek skilte."},
  {"name":"Marselisborg Strand","address":"Strandvejen 23, 8000 Aarhus","lat":56.1470,"lng":10.2055,"note":"Mindre p-plads ved strand, ofte gratis udenfor sæson."},
  {"name":"Amagerbrogade","address":"Amagerbrogade, 2300 København S","lat":55.6600,"lng":12.5900,"note":"Gadeparkering i dele af Amager - tidsbegrænset."},
  {"name":"Ørestad P","address":"Ørestads Boulevard, 2300 København S","lat":55.6356,"lng":12.5868,"note":"Store p-pladser, ofte gratis i ydre områder."},
  {"name":"Valby Langgade","address":"Valby Langgade, 2500 Valby","lat":55.6575,"lng":12.4960,"note":"Gadeparkering, tjek skilte."},
  {"name":"Vesterbro / Sønder Boulevard","address":"Sønder Boulevard, 1720 København","lat":55.6670,"lng":12.5650,"note":"Gratis efter visse tidspunkter - se skiltning."},
  {"name":"Nørrebrogade (NV)","address":"Nørrebrogade, 2200 København","lat":55.6920,"lng":12.5660,"note":"Nørrebro gader - nogle steder tidsbegrænset/gratis i weekender."},
  {"name":"Østerbro (sidegader)","address":"Østerbro, København","lat":55.7030,"lng":12.5850,"note":"Sidegader har ofte gratis pladser - tjek skilte."},
  {"name":"Frederiksberg / Smallegade","address":"Smallegade, Frederiksberg","lat":55.6760,"lng":12.5230,"note":"Gratis tidlig morgen/visse områder - tjek lokalt."},
  {"name":"Christianshavn / Torvegade","address":"Torvegade, 1400 København K","lat":55.6760,"lng":12.5930,"note":"Sidegader kan have gratis pladser."},
  {"name":"Jernbanevej P-plads","address":"Jernbanevej, 3000 Helsingør","lat":56.0390,"lng":12.6130,"note":"P-plads nær station. Tjek skilte for tid."},
  {"name":"Stationens P-plads","address":"Stationspladsen, 3000 Helsingør","lat":56.0395,"lng":12.6065,"note":"Korttidsparkering ved stationen."},
  {"name":"Nordhavnen / Mole","address":"Nordhavnsvej, 3000 Helsingør","lat":56.0425,"lng":12.6080,"note":"Kystnær p-plads, ofte gratis."},
  {"name":"Humlebæk St. P","address":"Humlebæk Station, 3050 Humlebæk","lat":56.0362,"lng":12.4810,"note":"Station nær parkeringspladser."},
  {"name":"Lyngby / Sorgenfri","address":"Lyngby, 2800 Kgs. Lyngby","lat":55.7620,"lng":12.5185,"note":"Gratis i visse områder."},
  {"name":"Rødovre Centrum","address":"Rødovre Centrum, 2610 Rødovre","lat":55.6735,"lng":12.4670,"note":"Større p-plads, ofte gratis."},
  {"name":"Hvidovrevej P","address":"Hvidovrevej, 2650 Hvidovre","lat":55.6580,"lng":12.4790,"note":"Gratis pladser i ydre områder."},
  {"name":"Køge Nord P","address":"Køge Nord, 4600 Køge","lat":55.4685,"lng":12.2345,"note":"Parkering ved station; gratis for kort tid."},
  {"name":"Roskilde Station P","address":"Roskilde Station, 4000 Roskilde","lat":55.6419,"lng":12.0805,"note":"Gratis korttidsparkering; tjek skilte."},
  {"name":"Greve / Center P","address":"Greve, 2670 Greve","lat":55.6150,"lng":12.2940,"note":"Gratis p-plads ved centrum."},
  {"name":"Næstved / Station P","address":"Næstved Station, 4700 Næstved","lat":55.2290,"lng":11.7510,"note":"Korttidsparkering."},
  {"name":"Slagelse Station P","address":"Slagelse Station, 4200 Slagelse","lat":55.4020,"lng":11.3510,"note":"Station nær gratis pladser."},
  {"name":"Københavns Lufthavn / P1","address":"Kastrup Lufthavn, 2770 Kastrup","lat":55.6296,"lng":12.6559,"note":"Korttidsparkering; gratis tidspunkter."},
  {"name":"Københavns Lufthavn / P2","address":"Kastrup Lufthavn, 2770 Kastrup","lat":55.6300,"lng":12.6575,"note":"Gratis korttidsparkering."},
  {"name":"Dragør / Centrum","address":"Dragør, 2791 Dragør","lat":55.6315,"lng":12.6550,"note":"Gratis gadeparkering."},
  {"name":"Malmparken / Gentofte","address":"Gentofte, 2820 Gentofte","lat":55.7510,"lng":12.5700,"note":"Gratis pladser ved parker."},
  {"name":"Charlottenlund / Skov","address":"Charlottenlund, 2920 Charlottenlund","lat":55.7525,"lng":12.5670,"note":"Gadeparkering, tjek skilte."},
  {"name":"Hørsholm / Center","address":"Hørsholm, 2970 Hørsholm","lat":55.8760,"lng":12.5200,"note":"Gratis pladser omkring centrum."},
  {"name":"Kokkedal St. P","address":"Kokkedal Station, 2980 Kokkedal","lat":55.9210,"lng":12.5390,"note":"Korttidsparkering; tjek skilte."},
  {"name":"Fredensborg / Centrum","address":"Fredensborg, 2980 Fredensborg","lat":56.0045,"lng":12.4185,"note":"Gratis pladser ved bycentrum."},
  {"name":"Lyngby / DTU P","address":"Lyngby, 2800 Kgs. Lyngby","lat":55.7875,"lng":12.5220,"note":"Gratis p-plads nær DTU."},
  {"name":"Husumvej P","address":"Husumvej, 2700 Brønshøj","lat":55.7115,"lng":12.4790,"note":"Gadeparkering, gratis visse tidspunkter."},
  {"name":"Vallensbæk / Centrum","address":"Vallensbæk, 2665 Vallensbæk","lat":55.5990,"lng":12.3820,"note":"Gratis pladser ved bycentrum."},
  {"name":"Ishøj / Strandparkering","address":"Ishøj, 2635 Ishøj","lat":55.6005,"lng":12.3555,"note":"Gratis parkering ved strand."},
  {"name":"Solrød Strand / Centrum","address":"Solrød Strand, 2680 Solrød Strand","lat":55.5215,"lng":12.2820,"note":"Gratis gadeparkering."},
  {"name":"Svanemøllen P","address":"Svanemøllen, 2100 København Ø","lat":55.7090,"lng":12.5900,"note":"Gratis efter 18:00."},
  {"name":"Østerport / Sidegader","address":"Østerport, 2100 København Ø","lat":55.6990,"lng":12.5880,"note":"Gratis parkering i sidegader."},
  {"name":"Fælledvej / P","address":"Fælledvej, 2200 København N","lat":55.7035,"lng":12.5695,"note":"Gratis korttidsparkering."},
  {"name":"Frederiksberg Have P","address":"Frederiksberg, 2000 Frederiksberg","lat":55.6762,"lng":12.5200,"note":"Gratis parkering omkring haven."},
  {"name":"Amager Vest (ydre)","address":"Amager Vest, København","lat":55.6450,"lng":12.5700,"note":"Ydre Amager: flere gratis p-pladser."},
  {"name":"Valby Syd P2","address":"Valbyparken, Valby","lat":55.6560,"lng":12.4995,"note":"Større p-plads tæt ved park."},
  {"name":"Ørestad P2","address":"Arne Jacobsens Allé, Ørestad","lat":55.6366,"lng":12.5902,"note":"Parkeringspladser i Ørestad, ofte med gratis zoner."},
  {"name":"Holte Station / P","address":"Holte Station, 2840 Holte","lat":55.8125,"lng":12.4710,"note":"Gratis korttidsparkering nær station."},
  {"name":"Rungsted Kyst / P","address":"Rungsted, 2960 Rungsted Kyst","lat":55.9415,"lng":12.5660,"note":"Gadeparkering; gratis visse tidspunkter."},
  {"name":"Humlebæk / Kulturhus","address":"Humlebæk, 3050 Humlebæk","lat":56.0345,"lng":12.4930,"note":"Gratis pladser omkring kulturhus."}
[
  {"name":"Humlebæk Station P","address":"Humlebæk, Fredensborg","lat":55.97074,"lng":12.53485,"note":"Stationsparkering – gratis udvalgte steder"},
  {"name":"Snekkersten Station P","address":"Snekkersten, Helsingør","lat":56.01316,"lng":12.58721,"note":"Gratis ude mod vandet"},
  {"name":"Hillerød Station Syd P","address":"Hillerød","lat":55.93198,"lng":12.30391,"note":"Gratis pladser bag stationen"},
  {"name":"Valby Idrætspark P","address":"Valbyparken, Valby","lat":55.65599,"lng":12.49944,"note":"Større gratis parkeringsområde"},
  {"name":"Ørestad Syd P (Gratis Zoner)","address":"Ørestad, København","lat":55.63552,"lng":12.58773,"note":"Flere gratis zoner"},
  {"name":"Østerbro Fælledparken P","address":"Østerbro, København","lat":55.70624,"lng":12.56148,"note":"Gratis efter 17:00"},
  {"name":"Nørrebro Superkilen P","address":"Nørrebro, København","lat":55.69511,"lng":12.54973,"note":"Gratis på udvalgte tidspunkter"},
  {"name":"Amager Strandpark Vest P","address":"Amager Strandvej","lat":55.64626,"lng":12.59611,"note":"Gratis områder tæt på strand"},
  {"name":"Hellerup Strandpark P","address":"Hellerup Strand","lat":55.73498,"lng":12.57591,"note":"Gratis efter 18:00"},
  {"name":"Charlottenlund Fort P","address":"Charlottenlund","lat":55.74802,"lng":12.59141,"note":"Gratis ude mod skoven"},
  {"name":"Klampenborg Dyrehaven P","address":"Dyrehaven","lat":55.77721,"lng":12.57089,"note":"Gratis parkeringsplads ved indgang"},
  {"name":"Dragør Sydstrand P","address":"Dragør","lat":55.56822,"lng":12.66911,"note":"Gratis p-plads ved stranden"},
  {"name":"Roskilde Fjord P","address":"Roskilde Havn","lat":55.65311,"lng":12.08398,"note":"Gratis større parkeringsområde"},
  {"name":"Køge Marina P","address":"Køge Havn","lat":55.45781,"lng":12.20012,"note":"Gratis marina P"},
  {"name":"Greve Strandpark P","address":"Greve Strand","lat":55.58292,"lng":12.30813,"note":"Gratis strand P"},
  {"name":"Ishøj Strand Dyrepark P","address":"Ishøj","lat":55.60113,"lng":12.36699,"note":"Gratis i hele området"},
  {"name":"Vallensbæk Strand P","address":"Vallensbæk","lat":55.61542,"lng":12.39907,"note":"Gratis ved strand"},
  {"name":"Tårnby Idrætspark P","address":"Tårnby","lat":55.63222,"lng":12.60433,"note":"Gratis sportspark P"},
  {"name":"Farum Arena P","address":"Farum","lat":55.81077,"lng":12.37132,"note":"Gratis større parkeringsplads"},
  {"name":"Birkerød Nord P","address":"Birkerød","lat":55.84732,"lng":12.42919,"note":"Gratis udvalgte områder"},
  {"name":"Rungsted Havn P","address":"Rungsted","lat":55.88382,"lng":12.53327,"note":"Gratis efter 18:00"},
  {"name":"Aalborg Vestby Havn P","address":"Aalborg","lat":57.05139,"lng":9.90253,"note":"Gratis havneparkering"},
  {"name":"Aarhus Marselisborg Strand P","address":"Aarhus","lat":56.14832,"lng":10.20547,"note":"Gratis ved strand"},
  {"name":"Skanderborg Sø P","address":"Skanderborg","lat":56.03429,"lng":9.92618,"note":"Gratis ved sø"},
  {"name":"Vejle Fjord Syd P","address":"Vejle","lat":55.70093,"lng":9.55587,"note":"Gratis ved fjorden"},
  {"name":"Frederikshavn Marina P","address":"Frederikshavn","lat":57.43541,"lng":10.51732,"note":"Gratis langs kajen"},
  {"name":"Esbjerg Strand P","address":"Esbjerg","lat":55.47827,"lng":8.45155,"note":"Gratis strandparkering"},
  {"name":"Hirtshals Fyrpark P","address":"Hirtshals","lat":57.58982,"lng":9.96663,"note":"Gratis ved fyrtårn"},
  {"name":"Nykøbing Mors Havn P","address":"Nykøbing Mors","lat":56.78991,"lng":8.86172,"note":"Gratis marineparkering"},
  {"name":"Thisted Strand P","address":"Thisted","lat":56.96709,"lng":8.68152,"note":"Gratis ved strand"}
]

